[{"id":18, "name":"Av. Scalabrini Ortiz y Av. Corrientes", "number":1, "latitude":-34.62644598, "longitude":-58.47106417, "branch_id":1, "created_at":"2018-04-14 17:24:46", "updated_at":"2018-05-04 15:09:57"},
 {"id":19, "name":"Av. Scalabrini Ortiz y Loyola", "number":2, "latitude":-34.6084332, "longitude":-58.46381147, "branch_id":1, "created_at":"2018-04-14 17:25:36", "updated_at":"2018-05-04 15:10:21"},
 {"id":20, "name":"Av. Scalabrini Ortiz y Jufre", "number":3, "latitude":-34.59931931, "longitude":-58.45059394, "branch_id":1, "created_at":"2018-04-14 17:26:18", "updated_at":"2018-05-04 15:10:29"},
 {"id":21, "name":"Av. Scalabrini Ortiz y Av. Cordoba", "number":4, "latitude":-34.59006296, "longitude":-58.43853458, "branch_id":1, "created_at":"2018-04-14 17:26:52", "updated_at":"2018-05-04 18:59:21"},
 {"id":22, "name":"Av. Scalabrini Ortiz y Honduras", "number":5, "latitude":-34.58411031, "longitude":-58.43300846, "branch_id":1, "created_at":"2018-04-14 19:09:01", "updated_at":"2018-05-04 15:11:17"},
 {"id":24, "name":"Av. Scalabrini Ortiz y Nicaragua", "number":6, "latitude":-34.58981, "longitude":-58.423251, "branch_id":1, "created_at":"2018-04-14 19:13:16", "updated_at":"2018-04-14 19:13:16"},
 {"id":25, "name":"Av. Scalabrini Ortiz y Paraguay", "number":7, "latitude":-34.5854285, "longitude":-58.41432468, "branch_id":1, "created_at":"2018-04-14 19:14:51", "updated_at":"2018-05-04 15:12:03"},
 {"id":26, "name":"Av. Scalabrini Ortiz y Guemes", "number":8, "latitude":-34.5815455, "longitude":-58.41597422, "branch_id":1, "created_at":"2018-04-14 19:15:42", "updated_at":"2018-05-04 15:11:56"},
 {"id":27, "name":"Av. Santa Fe y Malabia", "number":9, "latitude":-34.57706934, "longitude":-58.41663166, "branch_id":1, "created_at":"2018-04-14 19:17:26", "updated_at":"2018-05-04 15:11:39"},
 {"id":28, "name":"Av. Santa Fe y Malabia", "number":1, "latitude":-34.54370648, "longitude":-58.47173497, "branch_id":2, "created_at":"2018-04-14 20:27:04", "updated_at":"2018-05-04 15:05:43"},
 {"id":29, "name":"Av. Scalabrini Ortiz y Guemes", "number":2, "latitude":-34.55289052, "longitude":-58.46500792, "branch_id":2, "created_at":"2018-04-14 20:27:34", "updated_at":"2018-05-04 15:06:05"},
 {"id":30, "name":"Av. Scalabrini Ortiz y Paraguay", "number":3, "latitude":-34.56287191, "longitude":-58.45537921, "branch_id":2, "created_at":"2018-04-14 20:27:55", "updated_at":"2018-05-04 15:06:18"},
 {"id":31, "name":"Av. Scalabrini Ortiz y Nicaragua", "number":4, "latitude":-34.57019981, "longitude":-58.44462284, "branch_id":2, "created_at":"2018-04-14 20:28:20", "updated_at":"2018-05-04 15:06:41"},
 {"id":32, "name":"Av. Scalabrini Ortiz y Honduras", "number":5, "latitude":-34.57554188, "longitude":-58.43425299, "branch_id":2, "created_at":"2018-04-14 20:28:38", "updated_at":"2018-05-04 15:08:58"},
 {"id":33, "name":"Av. Scalabrini Ortiz y Av. Cordoba", "number":6, "latitude":-34.57769675, "longitude":-58.42771991, "branch_id":2, "created_at":"2018-04-14 20:28:53", "updated_at":"2018-05-04 18:59:59"},
 {"id":34, "name":"Av. Scalabrini Ortiz y Jufre", "number":7, "latitude":-34.58462262, "longitude":-58.41660498, "branch_id":2, "created_at":"2018-04-14 20:29:17", "updated_at":"2018-05-04 15:08:11"},
 {"id":35, "name":"Av. Scalabrini Ortiz y Loyola", "number":8, "latitude":-34.59370278, "longitude":-58.42896421, "branch_id":2, "created_at":"2018-04-14 20:29:35", "updated_at":"2018-05-04 15:08:37"},
 {"id":36, "name":"Av. Scalabrini Ortiz y Av. Corrientes", "number":9, "latitude":-34.599815, "longitude":-58.438706, "branch_id":2, "created_at":"2018-04-14 20:29:52", "updated_at":"2018-04-14 20:29:52"},
 {"id":37, "name":"Puente Pacifico", "number":1, "latitude":-34.63055783, "longitude":-58.4693527, "branch_id":3, "created_at":"2018-04-14 21:50:52", "updated_at":"2018-05-04 19:00:20"},
 {"id":38, "name":"Av. Luis Maria Campos y Av. Gral. Indalecio Chenaut", "number":2, "latitude":-34.61107652, "longitude":-58.46664463, "branch_id":3, "created_at":"2018-04-14 21:53:01", "updated_at":"2018-05-04 19:00:28"},
 {"id":39, "name":"Av. Luis Maria Campos y Tte. Benjam\u00edn Matienzo", "number":3, "latitude":-34.59114167, "longitude":-58.43905289, "branch_id":3, "created_at":"2018-04-14 21:54:59", "updated_at":"2018-05-04 19:00:34"},
 {"id":40, "name":"Hospital Militar", "number":1, "latitude":-34.5447556, "longitude":-58.45979886, "branch_id":4, "created_at":"2018-04-14 22:55:45", "updated_at":"2018-05-04 18:01:37"},
 {"id":41, "name":"Av. Luis Mar\u00eda Campos y Ortega Gasset", "number":2, "latitude":-34.55499619, "longitude":-58.4630663, "branch_id":4, "created_at":"2018-04-14 22:56:03", "updated_at":"2018-05-04 18:01:51"},
 {"id":42, "name":"Embajada de la Rep\u00fablica de Venezuela", "number":3, "latitude":-34.5619119, "longitude":-58.4749607, "branch_id":4, "created_at":"2018-04-14 22:56:18", "updated_at":"2018-05-04 18:02:30"},
 {"id":43, "name":"Av. Santa Fe y Uriarte", "number":4, "latitude":-34.57516633, "longitude":-58.50046926, "branch_id":4, "created_at":"2018-04-14 23:01:06", "updated_at":"2018-05-04 18:02:11"},
 {"id":44, "name":"Av. Luis Maria Campos y Gorostiaga", "number":4, "latitude":-34.568115, "longitude":-58.437454, "branch_id":3, "created_at":"2018-04-14 23:08:24", "updated_at":"2018-05-04 19:00:44"},
 {"id":50, "name":"Av. Santa Fe y Gurruchaga", "number":10, "latitude":-34.56866414, "longitude":-58.42812339, "branch_id":1, "created_at":"2018-04-29 19:33:13", "updated_at":"2018-05-04 15:09:33"},
 {"id":51, "name":"Av. Luis Maria Campos y Av. Dorrego", "number":11, "latitude":-34.5512893, "longitude":-58.45990411, "branch_id":1, "created_at":"2018-04-29 19:34:10", "updated_at":"2018-05-04 18:59:33"}]